header: 
  seq: 0
  stamp: 
    secs: 1652992540
    nsecs: 807979644
  frame_id: "F2003127"
GPS_INS_Time: 259256.38
GPS_IMU_Time: 259256.385021
GPS_mSOW: 
  data: 0
LLH: 
  x: 39.040000941
  y: -77.389999463
  z: -0.008
YPR: 
  x: 152.531
  y: -0.054
  z: 0.195
OriQuat: 
  x: 0.0
  y: 0.0
  z: 0.0
  w: 0.0
Vel_ENU: 
  x: 0.0
  y: 0.0
  z: 0.0
Solution_Status: 
  data: 0
Pos_STD: 
  x: 0.0
  y: 0.0
  z: 0.0
Heading_STD: 0.0
USW: 0
---
header: 
  seq: 1
  stamp: 
    secs: 1652992540
    nsecs: 828956470
  frame_id: "F2003127"
GPS_INS_Time: 259256.4
GPS_IMU_Time: 259256.405022
GPS_mSOW: 
  data: 0
LLH: 
  x: 39.040000941
  y: -77.389999463
  z: -0.008
YPR: 
  x: 152.534
  y: -0.054
  z: 0.194
OriQuat: 
  x: 0.0
  y: 0.0
  z: 0.0
  w: 0.0
Vel_ENU: 
  x: 0.0
  y: 0.0
  z: 0.0
Solution_Status: 
  data: 0
Pos_STD: 
  x: 0.0
  y: 0.0
  z: 0.0
Heading_STD: 0.0
USW: 0
---
header: 
  seq: 2
  stamp: 
    secs: 1652992540
    nsecs: 849956906
  frame_id: "F2003127"
GPS_INS_Time: 259256.42
GPS_IMU_Time: 259256.425023
GPS_mSOW: 
  data: 0
LLH: 
  x: 39.040000941
  y: -77.389999464
  z: -0.008
YPR: 
  x: 152.533
  y: -0.056
  z: 0.196
OriQuat: 
  x: 0.0
  y: 0.0
  z: 0.0
  w: 0.0
Vel_ENU: 
  x: 0.0
  y: 0.0
  z: 0.0
Solution_Status: 
  data: 0
Pos_STD: 
  x: 0.0
  y: 0.0
  z: 0.0
Heading_STD: 0.0
USW: 0
---
header: 
  seq: 3
  stamp: 
    secs: 1652992540
    nsecs: 871068895
  frame_id: "F2003127"
GPS_INS_Time: 259256.44
GPS_IMU_Time: 259256.445025
GPS_mSOW: 
  data: 0
LLH: 
  x: 39.040000941
  y: -77.389999464
  z: -0.008
YPR: 
  x: 152.533
  y: -0.059
  z: 0.193
OriQuat: 
  x: 0.0
  y: 0.0
  z: 0.0
  w: 0.0
Vel_ENU: 
  x: 0.0
  y: 0.0
  z: 0.0
Solution_Status: 
  data: 0
Pos_STD: 
  x: 0.0
  y: 0.0
  z: 0.0
Heading_STD: 0.0
USW: 0
---
header: 
  seq: 4
  stamp: 
    secs: 1652992540
    nsecs: 886952182
  frame_id: "F2003127"
GPS_INS_Time: 259256.46
GPS_IMU_Time: 259256.465027
GPS_mSOW: 
  data: 0
LLH: 
  x: 39.040000941
  y: -77.389999464
  z: -0.008
YPR: 
  x: 152.53
  y: -0.054
  z: 0.191
OriQuat: 
  x: 0.0
  y: 0.0
  z: 0.0
  w: 0.0
Vel_ENU: 
  x: 0.0
  y: 0.0
  z: 0.0
Solution_Status: 
  data: 0
Pos_STD: 
  x: 0.0
  y: 0.0
  z: 0.0
Heading_STD: 0.0
USW: 0
---
header: 
  seq: 5
  stamp: 
    secs: 1652992540
    nsecs: 908029691
  frame_id: "F2003127"
GPS_INS_Time: 259256.48
GPS_IMU_Time: 259256.485027
GPS_mSOW: 
  data: 0
LLH: 
  x: 39.040000942
  y: -77.389999464
  z: -0.008
YPR: 
  x: 152.527
  y: -0.054
  z: 0.192
OriQuat: 
  x: 0.0
  y: 0.0
  z: 0.0
  w: 0.0
Vel_ENU: 
  x: 0.0
  y: 0.0
  z: 0.0
Solution_Status: 
  data: 0
Pos_STD: 
  x: 0.0
  y: 0.0
  z: 0.0
Heading_STD: 0.0
USW: 0
---
header: 
  seq: 6
  stamp: 
    secs: 1652992540
    nsecs: 928928408
  frame_id: "F2003127"
GPS_INS_Time: 259256.5
GPS_IMU_Time: 259256.505028
GPS_mSOW: 
  data: 0
LLH: 
  x: 39.040000942
  y: -77.389999465
  z: -0.008
YPR: 
  x: 152.546
  y: -0.051
  z: 0.18
OriQuat: 
  x: 0.0
  y: 0.0
  z: 0.0
  w: 0.0
Vel_ENU: 
  x: 0.0
  y: 0.0
  z: 0.0
Solution_Status: 
  data: 0
Pos_STD: 
  x: 0.0
  y: 0.0
  z: 0.0
Heading_STD: 0.0
USW: 0
---
header: 
  seq: 7
  stamp: 
    secs: 1652992540
    nsecs: 949970732
  frame_id: "F2003127"
GPS_INS_Time: 259256.52
GPS_IMU_Time: 259256.524959
GPS_mSOW: 
  data: 0
LLH: 
  x: 39.040000941
  y: -77.389999466
  z: -0.009
YPR: 
  x: 152.601
  y: -0.054
  z: 0.186
OriQuat: 
  x: 0.0
  y: 0.0
  z: 0.0
  w: 0.0
Vel_ENU: 
  x: 0.0
  y: 0.0
  z: 0.0
Solution_Status: 
  data: 0
Pos_STD: 
  x: 0.0
  y: 0.0
  z: 0.0
Heading_STD: 0.0
USW: 0
---
header: 
  seq: 8
  stamp: 
    secs: 1652992540
    nsecs: 971035519
  frame_id: "F2003127"
GPS_INS_Time: 259256.54
GPS_IMU_Time: 259256.54496
GPS_mSOW: 
  data: 0
LLH: 
  x: 39.040000942
  y: -77.389999466
  z: -0.009
YPR: 
  x: 152.603
  y: -0.056
  z: 0.187
OriQuat: 
  x: 0.0
  y: 0.0
  z: 0.0
  w: 0.0
Vel_ENU: 
  x: 0.0
  y: 0.0
  z: 0.0
Solution_Status: 
  data: 0
Pos_STD: 
  x: 0.0
  y: 0.0
  z: 0.0
Heading_STD: 0.0
USW: 0
---
header: 
  seq: 9
  stamp: 
    secs: 1652992540
    nsecs: 986923232
  frame_id: "F2003127"
GPS_INS_Time: 259256.56
GPS_IMU_Time: 259256.564962
GPS_mSOW: 
  data: 0
LLH: 
  x: 39.040000942
  y: -77.389999466
  z: -0.009
YPR: 
  x: 152.603
  y: -0.049
  z: 0.188
OriQuat: 
  x: 0.0
  y: 0.0
  z: 0.0
  w: 0.0
Vel_ENU: 
  x: 0.0
  y: 0.0
  z: 0.0
Solution_Status: 
  data: 0
Pos_STD: 
  x: 0.0
  y: 0.0
  z: 0.0
Heading_STD: 0.0
USW: 0
---
header: 
  seq: 10
  stamp: 
    secs: 1652992541
    nsecs:   7968167
  frame_id: "F2003127"
GPS_INS_Time: 259256.58
GPS_IMU_Time: 259256.584963
GPS_mSOW: 
  data: 0
LLH: 
  x: 39.040000942
  y: -77.389999467
  z: -0.009
YPR: 
  x: 152.607
  y: -0.05
  z: 0.189
OriQuat: 
  x: 0.0
  y: 0.0
  z: 0.0
  w: 0.0
Vel_ENU: 
  x: 0.0
  y: 0.0
  z: 0.0
Solution_Status: 
  data: 0
Pos_STD: 
  x: 0.0
  y: 0.0
  z: 0.0
Heading_STD: 0.0
USW: 0
---
header: 
  seq: 11
  stamp: 
    secs: 1652992541
    nsecs:  28895568
  frame_id: "F2003127"
GPS_INS_Time: 259256.6
GPS_IMU_Time: 259256.604964
GPS_mSOW: 
  data: 0
LLH: 
  x: 39.040000941
  y: -77.389999468
  z: -0.009
YPR: 
  x: 152.716
  y: -0.046
  z: 0.184
OriQuat: 
  x: 0.0
  y: 0.0
  z: 0.0
  w: 0.0
Vel_ENU: 
  x: 0.0
  y: 0.0
  z: 0.0
Solution_Status: 
  data: 0
Pos_STD: 
  x: 0.0
  y: 0.0
  z: 0.0
Heading_STD: 0.0
USW: 0
---
header: 
  seq: 12
  stamp: 
    secs: 1652992541
    nsecs:  49957855
  frame_id: "F2003127"
GPS_INS_Time: 259256.62
GPS_IMU_Time: 259256.624965
GPS_mSOW: 
  data: 0
LLH: 
  x: 39.040000939
  y: -77.389999471
  z: -0.009
YPR: 
  x: 152.97
  y: -0.044
  z: 0.175
OriQuat: 
  x: 0.0
  y: 0.0
  z: 0.0
  w: 0.0
Vel_ENU: 
  x: -0.01
  y: -0.01
  z: 0.0
Solution_Status: 
  data: 0
Pos_STD: 
  x: 0.0
  y: 0.0
  z: 0.0
Heading_STD: 0.0
USW: 0
---
header: 
  seq: 13
  stamp: 
    secs: 1652992541
    nsecs:  71231766
  frame_id: "F2003127"
GPS_INS_Time: 259256.64
GPS_IMU_Time: 259256.644966
GPS_mSOW: 
  data: 0
LLH: 
  x: 39.040000937
  y: -77.389999476
  z: -0.009
YPR: 
  x: 153.276
  y: -0.041
  z: 0.177
OriQuat: 
  x: 0.0
  y: 0.0
  z: 0.0
  w: 0.0
Vel_ENU: 
  x: -0.01
  y: -0.01
  z: 0.0
Solution_Status: 
  data: 0
Pos_STD: 
  x: 0.0
  y: 0.0
  z: 0.0
Heading_STD: 0.0
USW: 0
---
header: 
  seq: 14
  stamp: 
    secs: 1652992541
    nsecs:  86991982
  frame_id: "F2003127"
GPS_INS_Time: 259256.66
GPS_IMU_Time: 259256.664969
GPS_mSOW: 
  data: 0
LLH: 
  x: 39.040000935
  y: -77.38999948
  z: -0.009
YPR: 
  x: 153.521
  y: -0.037
  z: 0.192
OriQuat: 
  x: 0.0
  y: 0.0
  z: 0.0
  w: 0.0
Vel_ENU: 
  x: -0.02
  y: -0.01
  z: 0.0
Solution_Status: 
  data: 0
Pos_STD: 
  x: 0.0
  y: 0.0
  z: 0.0
Heading_STD: 0.0
USW: 0
---
header: 
  seq: 15
  stamp: 
    secs: 1652992541
    nsecs: 107951253
  frame_id: "F2003127"
GPS_INS_Time: 259256.68
GPS_IMU_Time: 259256.684969
GPS_mSOW: 
  data: 0
LLH: 
  x: 39.04000093
  y: -77.389999486
  z: -0.009
YPR: 
  x: 153.826
  y: -0.036
  z: 0.226
OriQuat: 
  x: 0.0
  y: 0.0
  z: 0.0
  w: 0.0
Vel_ENU: 
  x: -0.03
  y: -0.03
  z: 0.0
Solution_Status: 
  data: 0
Pos_STD: 
  x: 0.0
  y: 0.0
  z: 0.0
Heading_STD: 0.0
USW: 0
---
header: 
  seq: 16
  stamp: 
    secs: 1652992541
    nsecs: 128879007
  frame_id: "F2003127"
GPS_INS_Time: 259256.7
GPS_IMU_Time: 259256.70497
GPS_mSOW: 
  data: 0
LLH: 
  x: 39.040000919
  y: -77.389999495
  z: -0.009
YPR: 
  x: 154.248
  y: -0.02
  z: 0.33
OriQuat: 
  x: 0.0
  y: 0.0
  z: 0.0
  w: 0.0
Vel_ENU: 
  x: -0.04
  y: -0.07
  z: 0.0
Solution_Status: 
  data: 0
Pos_STD: 
  x: 0.0
  y: 0.0
  z: 0.0
Heading_STD: 0.0
USW: 0
---
header: 
  seq: 17
  stamp: 
    secs: 1652992541
    nsecs: 149916942
  frame_id: "F2003127"
GPS_INS_Time: 259256.72
GPS_IMU_Time: 259256.724973
GPS_mSOW: 
  data: 0
LLH: 
  x: 39.040000901
  y: -77.389999509
  z: -0.009
YPR: 
  x: 155.339
  y: 0.049
  z: 1.0
OriQuat: 
  x: 0.0
  y: 0.0
  z: 0.0
  w: 0.0
Vel_ENU: 
  x: -0.07
  y: -0.11
  z: 0.03
Solution_Status: 
  data: 0
Pos_STD: 
  x: 0.0
  y: 0.0
  z: 0.0
Heading_STD: 0.0
USW: 0
---
header: 
  seq: 18
  stamp: 
    secs: 1652992541
    nsecs: 170877509
  frame_id: "F2003127"
GPS_INS_Time: 259256.74
GPS_IMU_Time: 259256.744972
GPS_mSOW: 
  data: 0
LLH: 
  x: 39.040000879
  y: -77.389999528
  z: -0.007
YPR: 
  x: 157.574
  y: 0.366
  z: 2.577
OriQuat: 
  x: 0.0
  y: 0.0
  z: 0.0
  w: 0.0
Vel_ENU: 
  x: -0.09
  y: -0.12
  z: 0.08
Solution_Status: 
  data: 0
Pos_STD: 
  x: 0.0
  y: 0.0
  z: 0.0
Heading_STD: 0.0
USW: 0
---
header: 
  seq: 19
  stamp: 
    secs: 1652992541
    nsecs: 186970106
  frame_id: "F2003127"
GPS_INS_Time: 259256.76
GPS_IMU_Time: 259256.764973
GPS_mSOW: 
  data: 0
LLH: 
  x: 39.040000858
  y: -77.389999552
  z: -0.005
YPR: 
  x: 160.329
  y: 1.056
  z: 5.141
OriQuat: 
  x: 0.0
  y: 0.0
  z: 0.0
  w: 0.0
Vel_ENU: 
  x: -0.12
  y: -0.12
  z: 0.11
Solution_Status: 
  data: 0
Pos_STD: 
  x: 0.0
  y: 0.0
  z: 0.0
Heading_STD: 0.0
USW: 0
---
header: 
  seq: 20
  stamp: 
    secs: 1652992541
    nsecs: 207854453
  frame_id: "F2003127"
GPS_INS_Time: 259256.78
GPS_IMU_Time: 259256.784974
GPS_mSOW: 
  data: 0
LLH: 
  x: 39.040000835
  y: -77.389999586
  z: -0.003
YPR: 
  x: 163.224
  y: 1.959
  z: 8.107
OriQuat: 
  x: 0.0
  y: 0.0
  z: 0.0
  w: 0.0
Vel_ENU: 
  x: -0.17
  y: -0.13
  z: 0.12
Solution_Status: 
  data: 0
Pos_STD: 
  x: 0.0
  y: 0.0
  z: 0.0
Heading_STD: 0.0
USW: 0
---
header: 
  seq: 21
  stamp: 
    secs: 1652992541
    nsecs: 228916721
  frame_id: "F2003127"
GPS_INS_Time: 259256.8
GPS_IMU_Time: 259256.804976
GPS_mSOW: 
  data: 0
LLH: 
  x: 39.040000808
  y: -77.389999633
  z: 0.0
YPR: 
  x: 166.32
  y: 3.093
  z: 10.784
OriQuat: 
  x: 0.0
  y: 0.0
  z: 0.0
  w: 0.0
Vel_ENU: 
  x: -0.23
  y: -0.16
  z: 0.13
Solution_Status: 
  data: 0
Pos_STD: 
  x: 0.0
  y: 0.0
  z: 0.0
Heading_STD: 0.0
USW: 0
---
header: 
  seq: 22
  stamp: 
    secs: 1652992541
    nsecs: 249960027
  frame_id: "F2003127"
GPS_INS_Time: 259256.82
GPS_IMU_Time: 259256.824977
GPS_mSOW: 
  data: 0
LLH: 
  x: 39.040000774
  y: -77.389999696
  z: 0.001
YPR: 
  x: 169.383
  y: 4.696
  z: 12.642
OriQuat: 
  x: 0.0
  y: 0.0
  z: 0.0
  w: 0.0
Vel_ENU: 
  x: -0.3
  y: -0.2
  z: 0.15
Solution_Status: 
  data: 0
Pos_STD: 
  x: 0.0
  y: 0.0
  z: 0.0
Heading_STD: 0.0
USW: 0
---
header: 
  seq: 23
  stamp: 
    secs: 1652992541
    nsecs: 270965353
  frame_id: "F2003127"
GPS_INS_Time: 259256.84
GPS_IMU_Time: 259256.844978
GPS_mSOW: 
  data: 0
LLH: 
  x: 39.040000735
  y: -77.389999772
  z: 0.005
YPR: 
  x: 172.278
  y: 6.675
  z: 13.923
OriQuat: 
  x: 0.0
  y: 0.0
  z: 0.0
  w: 0.0
Vel_ENU: 
  x: -0.34
  y: -0.21
  z: 0.22
Solution_Status: 
  data: 0
Pos_STD: 
  x: 0.0
  y: 0.0
  z: 0.0
Heading_STD: 0.0
USW: 0
---
header: 
  seq: 24
  stamp: 
    secs: 1652992541
    nsecs: 286845529
  frame_id: "F2003127"
GPS_INS_Time: 259256.86
GPS_IMU_Time: 259256.864979
GPS_mSOW: 
  data: 0
LLH: 
  x: 39.040000697
  y: -77.389999854
  z: 0.01
YPR: 
  x: 175.122
  y: 8.894
  z: 15.232
OriQuat: 
  x: 0.0
  y: 0.0
  z: 0.0
  w: 0.0
Vel_ENU: 
  x: -0.36
  y: -0.2
  z: 0.3
Solution_Status: 
  data: 0
Pos_STD: 
  x: 0.0
  y: 0.0
  z: 0.0
Heading_STD: 0.0
USW: 0
---
header: 
  seq: 25
  stamp: 
    secs: 1652992541
    nsecs: 307890779
  frame_id: "F2003127"
GPS_INS_Time: 259256.88
GPS_IMU_Time: 259256.88498
GPS_mSOW: 
  data: 0
LLH: 
  x: 39.040000662
  y: -77.389999942
  z: 0.017
YPR: 
  x: 178.063
  y: 11.403
  z: 16.909
OriQuat: 
  x: 0.0
  y: 0.0
  z: 0.0
  w: 0.0
Vel_ENU: 
  x: -0.39
  y: -0.18
  z: 0.39
Solution_Status: 
  data: 0
Pos_STD: 
  x: 0.0
  y: 0.0
  z: 0.0
Heading_STD: 0.0
USW: 0
---
header: 
  seq: 26
  stamp: 
    secs: 1652992541
    nsecs: 328837902
  frame_id: "F2003127"
GPS_INS_Time: 259256.9
GPS_IMU_Time: 259256.904982
GPS_mSOW: 
  data: 0
LLH: 
  x: 39.040000634
  y: -77.390000035
  z: 0.026
YPR: 
  x: 180.698
  y: 13.638
  z: 18.727
OriQuat: 
  x: 0.0
  y: 0.0
  z: 0.0
  w: 0.0
Vel_ENU: 
  x: -0.4
  y: -0.13
  z: 0.46
Solution_Status: 
  data: 0
Pos_STD: 
  x: 0.0
  y: 0.0
  z: 0.0
Heading_STD: 0.0
USW: 0
---
header: 
  seq: 27
  stamp: 
    secs: 1652992541
    nsecs: 349876226
  frame_id: "F2003127"
GPS_INS_Time: 259256.92
GPS_IMU_Time: 259256.924983
GPS_mSOW: 
  data: 0
LLH: 
  x: 39.040000612
  y: -77.39000013
  z: 0.036
YPR: 
  x: 183.031
  y: 15.893
  z: 20.671
OriQuat: 
  x: 0.0
  y: 0.0
  z: 0.0
  w: 0.0
Vel_ENU: 
  x: -0.42
  y: -0.1
  z: 0.51
Solution_Status: 
  data: 0
Pos_STD: 
  x: 0.0
  y: 0.0
  z: 0.0
Heading_STD: 0.0
USW: 0
---
header: 
  seq: 28
  stamp: 
    secs: 1652992541
    nsecs: 370824572
  frame_id: "F2003127"
GPS_INS_Time: 259256.94
GPS_IMU_Time: 259256.944985
GPS_mSOW: 
  data: 0
LLH: 
  x: 39.040000594
  y: -77.390000234
  z: 0.046
YPR: 
  x: 185.395
  y: 18.375
  z: 22.236
OriQuat: 
  x: 0.0
  y: 0.0
  z: 0.0
  w: 0.0
Vel_ENU: 
  x: -0.46
  y: -0.08
  z: 0.55
Solution_Status: 
  data: 0
Pos_STD: 
  x: 0.0
  y: 0.0
  z: 0.0
Heading_STD: 0.0
USW: 0
---
header: 
  seq: 29
  stamp: 
    secs: 1652992541
    nsecs: 386965056
  frame_id: "F2003127"
GPS_INS_Time: 259256.96
GPS_IMU_Time: 259256.964985
GPS_mSOW: 
  data: 0
LLH: 
  x: 39.040000582
  y: -77.390000343
  z: 0.058
YPR: 
  x: 187.887
  y: 20.853
  z: 23.855
OriQuat: 
  x: 0.0
  y: 0.0
  z: 0.0
  w: 0.0
Vel_ENU: 
  x: -0.47
  y: -0.04
  z: 0.61
Solution_Status: 
  data: 0
Pos_STD: 
  x: 0.0
  y: 0.0
  z: 0.0
Heading_STD: 0.0
USW: 0
---
header: 
  seq: 30
  stamp: 
    secs: 1652992541
    nsecs: 407874902
  frame_id: "F2003127"
GPS_INS_Time: 259256.98
GPS_IMU_Time: 259256.984986
GPS_mSOW: 
  data: 0
LLH: 
  x: 39.040000578
  y: -77.390000453
  z: 0.071
YPR: 
  x: 190.395
  y: 23.328
  z: 25.867
OriQuat: 
  x: 0.0
  y: 0.0
  z: 0.0
  w: 0.0
Vel_ENU: 
  x: -0.47
  y: 0.0
  z: 0.66
Solution_Status: 
  data: 0
Pos_STD: 
  x: 0.0
  y: 0.0
  z: 0.0
Heading_STD: 0.0
USW: 0
---
header: 
  seq: 31
  stamp: 
    secs: 1652992541
    nsecs: 428799322
  frame_id: "F2003127"
GPS_INS_Time: 259257.0
GPS_IMU_Time: 259257.004987
GPS_mSOW: 
  data: 0
LLH: 
  x: 39.040000582
  y: -77.390000561
  z: 0.084
YPR: 
  x: 192.788
  y: 25.759
  z: 27.898
OriQuat: 
  x: 0.0
  y: 0.0
  z: 0.0
  w: 0.0
Vel_ENU: 
  x: -0.45
  y: 0.04
  z: 0.67
Solution_Status: 
  data: 0
Pos_STD: 
  x: 0.0
  y: 0.0
  z: 0.0
Heading_STD: 0.0
USW: 0
---
header: 
  seq: 32
  stamp: 
    secs: 1652992541
    nsecs: 449904830
  frame_id: "F2003127"
GPS_INS_Time: 259257.02
GPS_IMU_Time: 259257.024991
GPS_mSOW: 
  data: 0
LLH: 
  x: 39.040000595
  y: -77.390000663
  z: 0.098
YPR: 
  x: 195.034
  y: 28.06
  z: 29.767
OriQuat: 
  x: 0.0
  y: 0.0
  z: 0.0
  w: 0.0
Vel_ENU: 
  x: -0.42
  y: 0.09
  z: 0.68
Solution_Status: 
  data: 0
Pos_STD: 
  x: 0.0
  y: 0.0
  z: 0.0
Heading_STD: 0.0
USW: 0
---
header: 
  seq: 33
  stamp: 
    secs: 1652992541
    nsecs: 470929007
  frame_id: "F2003127"
GPS_INS_Time: 259257.04
GPS_IMU_Time: 259257.04499
GPS_mSOW: 
  data: 0
LLH: 
  x: 39.040000615
  y: -77.390000758
  z: 0.112
YPR: 
  x: 197.178
  y: 30.317
  z: 31.59
OriQuat: 
  x: 0.0
  y: 0.0
  z: 0.0
  w: 0.0
Vel_ENU: 
  x: -0.39
  y: 0.13
  z: 0.71
Solution_Status: 
  data: 0
Pos_STD: 
  x: 0.0
  y: 0.0
  z: 0.0
Heading_STD: 0.0
USW: 0
---
header: 
  seq: 34
  stamp: 
    secs: 1652992541
    nsecs: 486796239
  frame_id: "F2003127"
GPS_INS_Time: 259257.06
GPS_IMU_Time: 259257.064991
GPS_mSOW: 
  data: 0
LLH: 
  x: 39.040000643
  y: -77.390000845
  z: 0.126
YPR: 
  x: 199.229
  y: 32.812
  z: 33.448
OriQuat: 
  x: 0.0
  y: 0.0
  z: 0.0
  w: 0.0
Vel_ENU: 
  x: -0.34
  y: 0.18
  z: 0.74
Solution_Status: 
  data: 0
Pos_STD: 
  x: 0.0
  y: 0.0
  z: 0.0
Heading_STD: 0.0
USW: 0
---
header: 
  seq: 35
  stamp: 
    secs: 1652992541
    nsecs: 507841230
  frame_id: "F2003127"
GPS_INS_Time: 259257.08
GPS_IMU_Time: 259257.084992
GPS_mSOW: 
  data: 0
LLH: 
  x: 39.040000681
  y: -77.390000917
  z: 0.141
YPR: 
  x: 201.024
  y: 35.673
  z: 35.291
OriQuat: 
  x: 0.0
  y: 0.0
  z: 0.0
  w: 0.0
Vel_ENU: 
  x: -0.28
  y: 0.23
  z: 0.76
Solution_Status: 
  data: 0
Pos_STD: 
  x: 0.0
  y: 0.0
  z: 0.0
Heading_STD: 0.0
USW: 0
---
header: 
  seq: 36
  stamp: 
    secs: 1652992541
    nsecs: 528772168
  frame_id: "F2003127"
GPS_INS_Time: 259257.1
GPS_IMU_Time: 259257.104995
GPS_mSOW: 
  data: 0
LLH: 
  x: 39.040000729
  y: -77.390000975
  z: 0.157
YPR: 
  x: 202.676
  y: 38.892
  z: 37.241
OriQuat: 
  x: 0.0
  y: 0.0
  z: 0.0
  w: 0.0
Vel_ENU: 
  x: -0.21
  y: 0.29
  z: 0.78
Solution_Status: 
  data: 0
Pos_STD: 
  x: 0.0
  y: 0.0
  z: 0.0
Heading_STD: 0.0
USW: 0
---
header: 
  seq: 37
  stamp: 
    secs: 1652992541
    nsecs: 549919972
  frame_id: "F2003127"
GPS_INS_Time: 259257.12
GPS_IMU_Time: 259257.124995
GPS_mSOW: 
  data: 0
LLH: 
  x: 39.040000787
  y: -77.390001017
  z: 0.173
YPR: 
  x: 204.431
  y: 42.34
  z: 39.642
OriQuat: 
  x: 0.0
  y: 0.0
  z: 0.0
  w: 0.0
Vel_ENU: 
  x: -0.14
  y: 0.34
  z: 0.79
Solution_Status: 
  data: 0
Pos_STD: 
  x: 0.0
  y: 0.0
  z: 0.0
Heading_STD: 0.0
USW: 0
---
header: 
  seq: 38
  stamp: 
    secs: 1652992541
    nsecs: 570895779
  frame_id: "F2003127"
GPS_INS_Time: 259257.14
GPS_IMU_Time: 259257.144996
GPS_mSOW: 
  data: 0
LLH: 
  x: 39.040000853
  y: -77.390001043
  z: 0.189
YPR: 
  x: 206.245
  y: 45.794
  z: 42.482
OriQuat: 
  x: 0.0
  y: 0.0
  z: 0.0
  w: 0.0
Vel_ENU: 
  x: -0.07
  y: 0.39
  z: 0.79
Solution_Status: 
  data: 0
Pos_STD: 
  x: 0.0
  y: 0.0
  z: 0.0
Heading_STD: 0.0
USW: 0
---
header: 
  seq: 39
  stamp: 
    secs: 1652992541
    nsecs: 586845639
  frame_id: "F2003127"
GPS_INS_Time: 259257.16
GPS_IMU_Time: 259257.164997
GPS_mSOW: 
  data: 0
LLH: 
  x: 39.040000928
  y: -77.390001054
  z: 0.204
YPR: 
  x: 208.089
  y: 49.299
  z: 45.651
OriQuat: 
  x: 0.0
  y: 0.0
  z: 0.0
  w: 0.0
Vel_ENU: 
  x: -0.02
  y: 0.44
  z: 0.78
Solution_Status: 
  data: 0
Pos_STD: 
  x: 0.0
  y: 0.0
  z: 0.0
Heading_STD: 0.0
USW: 0
---
header: 
  seq: 40
  stamp: 
    secs: 1652992541
    nsecs: 607867667
  frame_id: "F2003127"
GPS_INS_Time: 259257.18
GPS_IMU_Time: 259257.185
GPS_mSOW: 
  data: 0
LLH: 
  x: 39.040001011
  y: -77.390001056
  z: 0.22
YPR: 
  x: 210.423
  y: 53.108
  z: 49.432
OriQuat: 
  x: 0.0
  y: 0.0
  z: 0.0
  w: 0.0
Vel_ENU: 
  x: 0.0
  y: 0.48
  z: 0.78
Solution_Status: 
  data: 0
Pos_STD: 
  x: 0.0
  y: 0.0
  z: 0.0
Heading_STD: 0.0
USW: 0
---
header: 
  seq: 41
  stamp: 
    secs: 1652992541
    nsecs: 628765088
  frame_id: "F2003127"
GPS_INS_Time: 259257.2
GPS_IMU_Time: 259257.204999
GPS_mSOW: 
  data: 0
LLH: 
  x: 39.040001101
  y: -77.39000105
  z: 0.236
YPR: 
  x: 213.47
  y: 57.302
  z: 53.957
OriQuat: 
  x: 0.0
  y: 0.0
  z: 0.0
  w: 0.0
Vel_ENU: 
  x: 0.04
  y: 0.52
  z: 0.76
Solution_Status: 
  data: 0
Pos_STD: 
  x: 0.0
  y: 0.0
  z: 0.0
Heading_STD: 0.0
USW: 0
---
header: 
  seq: 42
  stamp: 
    secs: 1652992541
    nsecs: 649757154
  frame_id: "F2003127"
GPS_INS_Time: 259257.22
GPS_IMU_Time: 259257.225001
GPS_mSOW: 
  data: 0
LLH: 
  x: 39.040001198
  y: -77.390001035
  z: 0.251
YPR: 
  x: 217.078
  y: 61.661
  z: 59.303
OriQuat: 
  x: 0.0
  y: 0.0
  z: 0.0
  w: 0.0
Vel_ENU: 
  x: 0.08
  y: 0.55
  z: 0.71
Solution_Status: 
  data: 0
Pos_STD: 
  x: 0.0
  y: 0.0
  z: 0.0
Heading_STD: 0.0
USW: 0
---
header: 
  seq: 43
  stamp: 
    secs: 1652992541
    nsecs: 670863070
  frame_id: "F2003127"
GPS_INS_Time: 259257.24
GPS_IMU_Time: 259257.245004
GPS_mSOW: 
  data: 0
LLH: 
  x: 39.0400013
  y: -77.39000101
  z: 0.264
YPR: 
  x: 220.921
  y: 65.829
  z: 65.342
OriQuat: 
  x: 0.0
  y: 0.0
  z: 0.0
  w: 0.0
Vel_ENU: 
  x: 0.13
  y: 0.56
  z: 0.64
Solution_Status: 
  data: 0
Pos_STD: 
  x: 0.0
  y: 0.0
  z: 0.0
Heading_STD: 0.0
USW: 0
---
header: 
  seq: 44
  stamp: 
    secs: 1652992541
    nsecs: 686899594
  frame_id: "F2003127"
GPS_INS_Time: 259257.26
GPS_IMU_Time: 259257.265005
GPS_mSOW: 
  data: 0
LLH: 
  x: 39.040001402
  y: -77.390000974
  z: 0.276
YPR: 
  x: 224.888
  y: 69.469
  z: 72.045
OriQuat: 
  x: 0.0
  y: 0.0
  z: 0.0
  w: 0.0
Vel_ENU: 
  x: 0.17
  y: 0.56
  z: 0.56
Solution_Status: 
  data: 0
Pos_STD: 
  x: 0.0
  y: 0.0
  z: 0.0
Heading_STD: 0.0
USW: 0
---
header: 
  seq: 45
  stamp: 
    secs: 1652992541
    nsecs: 707795940
  frame_id: "F2003127"
GPS_INS_Time: 259257.28
GPS_IMU_Time: 259257.285004
GPS_mSOW: 
  data: 0
LLH: 
  x: 39.040001501
  y: -77.390000928
  z: 0.287
YPR: 
  x: 228.643
  y: 72.524
  z: 78.862
OriQuat: 
  x: 0.0
  y: 0.0
  z: 0.0
  w: 0.0
Vel_ENU: 
  x: 0.22
  y: 0.53
  z: 0.47
Solution_Status: 
  data: 0
Pos_STD: 
  x: 0.0
  y: 0.0
  z: 0.0
Heading_STD: 0.0
USW: 0
---
header: 
  seq: 46
  stamp: 
    secs: 1652992541
    nsecs: 728726675
  frame_id: "F2003127"
GPS_INS_Time: 259257.3
GPS_IMU_Time: 259257.305006
GPS_mSOW: 
  data: 0
LLH: 
  x: 39.040001594
  y: -77.390000872
  z: 0.295
YPR: 
  x: 231.317
  y: 75.055
  z: 84.517
OriQuat: 
  x: 0.0
  y: 0.0
  z: 0.0
  w: 0.0
Vel_ENU: 
  x: 0.26
  y: 0.49
  z: 0.37
Solution_Status: 
  data: 0
Pos_STD: 
  x: 0.0
  y: 0.0
  z: 0.0
Heading_STD: 0.0
USW: 0
---
header: 
  seq: 47
  stamp: 
    secs: 1652992541
    nsecs: 749889293
  frame_id: "F2003127"
GPS_INS_Time: 259257.32
GPS_IMU_Time: 259257.325006
GPS_mSOW: 
  data: 0
LLH: 
  x: 39.040001679
  y: -77.390000805
  z: 0.302
YPR: 
  x: 232.166
  y: 77.078
  z: 88.144
OriQuat: 
  x: 0.0
  y: 0.0
  z: 0.0
  w: 0.0
Vel_ENU: 
  x: 0.31
  y: 0.44
  z: 0.28
Solution_Status: 
  data: 0
Pos_STD: 
  x: 0.0
  y: 0.0
  z: 0.0
Heading_STD: 0.0
USW: 0
---
header: 
  seq: 48
  stamp: 
    secs: 1652992541
    nsecs: 770718900
  frame_id: "F2003127"
GPS_INS_Time: 259257.34
GPS_IMU_Time: 259257.345007
GPS_mSOW: 
  data: 0
LLH: 
  x: 39.040001753
  y: -77.390000729
  z: 0.307
YPR: 
  x: 230.624
  y: 78.7
  z: 89.235
OriQuat: 
  x: 0.0
  y: 0.0
  z: 0.0
  w: 0.0
Vel_ENU: 
  x: 0.34
  y: 0.38
  z: 0.19
Solution_Status: 
  data: 0
Pos_STD: 
  x: 0.0
  y: 0.0
  z: 0.0
Heading_STD: 0.0
USW: 0
---
header: 
  seq: 49
  stamp: 
    secs: 1652992541
    nsecs: 786776868
  frame_id: "F2003127"
GPS_INS_Time: 259257.36
GPS_IMU_Time: 259257.365009
GPS_mSOW: 
  data: 0
LLH: 
  x: 39.040001814
  y: -77.390000645
  z: 0.31
YPR: 
  x: 227.298
  y: 80.172
  z: 87.988
OriQuat: 
  x: 0.0
  y: 0.0
  z: 0.0
  w: 0.0
Vel_ENU: 
  x: 0.37
  y: 0.29
  z: 0.1
Solution_Status: 
  data: 0
Pos_STD: 
  x: 0.0
  y: 0.0
  z: 0.0
Heading_STD: 0.0
USW: 0
---
header: 
  seq: 50
  stamp: 
    secs: 1652992541
    nsecs: 807710380
  frame_id: "F2003127"
GPS_INS_Time: 259257.38
GPS_IMU_Time: 259257.38501
GPS_mSOW: 
  data: 0
LLH: 
  x: 39.040001859
  y: -77.390000555
  z: 0.311
YPR: 
  x: 221.922
  y: 81.699
  z: 83.832
OriQuat: 
  x: 0.0
  y: 0.0
  z: 0.0
  w: 0.0
Vel_ENU: 
  x: 0.39
  y: 0.2
  z: 0.0
Solution_Status: 
  data: 0
Pos_STD: 
  x: 0.0
  y: 0.0
  z: 0.0
Heading_STD: 0.0
USW: 0
---
header: 
  seq: 51
  stamp: 
    secs: 1652992541
    nsecs: 828706706
  frame_id: "F2003127"
GPS_INS_Time: 259257.4
GPS_IMU_Time: 259257.405011
GPS_mSOW: 
  data: 0
LLH: 
  x: 39.040001891
  y: -77.39000046
  z: 0.31
YPR: 
  x: 210.205
  y: 83.216
  z: 72.512
OriQuat: 
  x: 0.0
  y: 0.0
  z: 0.0
  w: 0.0
Vel_ENU: 
  x: 0.42
  y: 0.15
  z: -0.08
Solution_Status: 
  data: 0
Pos_STD: 
  x: 0.0
  y: 0.0
  z: 0.0
Heading_STD: 0.0
USW: 0
---
header: 
  seq: 52
  stamp: 
    secs: 1652992541
    nsecs: 849834417
  frame_id: "F2003127"
GPS_INS_Time: 259257.42
GPS_IMU_Time: 259257.425012
GPS_mSOW: 
  data: 0
LLH: 
  x: 39.040001916
  y: -77.39000036
  z: 0.307
YPR: 
  x: 186.941
  y: 84.033
  z: 49.7
OriQuat: 
  x: 0.0
  y: 0.0
  z: 0.0
  w: 0.0
Vel_ENU: 
  x: 0.43
  y: 0.12
  z: -0.18
Solution_Status: 
  data: 0
Pos_STD: 
  x: 0.0
  y: 0.0
  z: 0.0
Heading_STD: 0.0
USW: 0
---
header: 
  seq: 53
  stamp: 
    secs: 1652992541
    nsecs: 870697320
  frame_id: "F2003127"
GPS_INS_Time: 259257.44
GPS_IMU_Time: 259257.445014
GPS_mSOW: 
  data: 0
LLH: 
  x: 39.040001935
  y: -77.390000257
  z: 0.303
YPR: 
  x: 158.23
  y: 83.054
  z: 21.6
OriQuat: 
  x: 0.0
  y: 0.0
  z: 0.0
  w: 0.0
Vel_ENU: 
  x: 0.45
  y: 0.08
  z: -0.29
Solution_Status: 
  data: 0
Pos_STD: 
  x: 0.0
  y: 0.0
  z: 0.0
Heading_STD: 0.0
USW: 0
---
header: 
  seq: 54
  stamp: 
    secs: 1652992541
    nsecs: 886829508
  frame_id: "F2003127"
GPS_INS_Time: 259257.46
GPS_IMU_Time: 259257.465015
GPS_mSOW: 
  data: 0
LLH: 
  x: 39.040001948
  y: -77.390000148
  z: 0.296
YPR: 
  x: 138.799
  y: 80.004
  z: 2.672
OriQuat: 
  x: 0.0
  y: 0.0
  z: 0.0
  w: 0.0
Vel_ENU: 
  x: 0.48
  y: 0.05
  z: -0.39
Solution_Status: 
  data: 0
Pos_STD: 
  x: 0.0
  y: 0.0
  z: 0.0
Heading_STD: 0.0
USW: 0
---
header: 
  seq: 55
  stamp: 
    secs: 1652992541
    nsecs: 907928479
  frame_id: "F2003127"
GPS_INS_Time: 259257.48
GPS_IMU_Time: 259257.485017
GPS_mSOW: 
  data: 0
LLH: 
  x: 39.040001956
  y: -77.390000036
  z: 0.287
YPR: 
  x: 129.669
  y: 75.817
  z: -5.87
OriQuat: 
  x: 0.0
  y: 0.0
  z: 0.0
  w: 0.0
Vel_ENU: 
  x: 0.47
  y: 0.04
  z: -0.48
Solution_Status: 
  data: 0
Pos_STD: 
  x: 0.0
  y: 0.0
  z: 0.0
Heading_STD: 0.0
USW: 0
---
header: 
  seq: 56
  stamp: 
    secs: 1652992541
    nsecs: 928679422
  frame_id: "F2003127"
GPS_INS_Time: 259257.5
GPS_IMU_Time: 259257.50502
GPS_mSOW: 
  data: 0
LLH: 
  x: 39.040001965
  y: -77.38999993
  z: 0.277
YPR: 
  x: 125.516
  y: 71.214
  z: -8.961
OriQuat: 
  x: 0.0
  y: 0.0
  z: 0.0
  w: 0.0
Vel_ENU: 
  x: 0.43
  y: 0.05
  z: -0.53
Solution_Status: 
  data: 0
Pos_STD: 
  x: 0.0
  y: 0.0
  z: 0.0
Heading_STD: 0.0
USW: 0
---
header: 
  seq: 57
  stamp: 
    secs: 1652992541
    nsecs: 949802004
  frame_id: "F2003127"
GPS_INS_Time: 259257.52
GPS_IMU_Time: 259257.524948
GPS_mSOW: 
  data: 0
LLH: 
  x: 39.040001977
  y: -77.389999835
  z: 0.266
YPR: 
  x: 123.788
  y: 66.488
  z: -9.455
OriQuat: 
  x: 0.0
  y: 0.0
  z: 0.0
  w: 0.0
Vel_ENU: 
  x: 0.39
  y: 0.07
  z: -0.56
Solution_Status: 
  data: 0
Pos_STD: 
  x: 0.0
  y: 0.0
  z: 0.0
Heading_STD: 0.0
USW: 0
---
header: 
  seq: 58
  stamp: 
    secs: 1652992541
    nsecs: 970664462
  frame_id: "F2003127"
GPS_INS_Time: 259257.54
GPS_IMU_Time: 259257.54495
GPS_mSOW: 
  data: 0
LLH: 
  x: 39.040001992
  y: -77.389999747
  z: 0.254
YPR: 
  x: 122.891
  y: 61.97
  z: -8.868
OriQuat: 
  x: 0.0
  y: 0.0
  z: 0.0
  w: 0.0
Vel_ENU: 
  x: 0.36
  y: 0.08
  z: -0.57
Solution_Status: 
  data: 0
Pos_STD: 
  x: 0.0
  y: 0.0
  z: 0.0
Heading_STD: 0.0
USW: 0
---
header: 
  seq: 59
  stamp: 
    secs: 1652992541
    nsecs: 986664580
  frame_id: "F2003127"
GPS_INS_Time: 259257.56
GPS_IMU_Time: 259257.56495
GPS_mSOW: 
  data: 0
LLH: 
  x: 39.040002008
  y: -77.389999666
  z: 0.242
YPR: 
  x: 121.928
  y: 57.597
  z: -8.386
OriQuat: 
  x: 0.0
  y: 0.0
  z: 0.0
  w: 0.0
Vel_ENU: 
  x: 0.32
  y: 0.08
  z: -0.6
Solution_Status: 
  data: 0
Pos_STD: 
  x: 0.0
  y: 0.0
  z: 0.0
Heading_STD: 0.0
USW: 0
---
header: 
  seq: 60
  stamp: 
    secs: 1652992542
    nsecs:   7715626
  frame_id: "F2003127"
GPS_INS_Time: 259257.58
GPS_IMU_Time: 259257.584952
GPS_mSOW: 
  data: 0
LLH: 
  x: 39.040002021
  y: -77.389999594
  z: 0.23
YPR: 
  x: 120.852
  y: 53.31
  z: -8.345
OriQuat: 
  x: 0.0
  y: 0.0
  z: 0.0
  w: 0.0
Vel_ENU: 
  x: 0.29
  y: 0.07
  z: -0.62
Solution_Status: 
  data: 0
Pos_STD: 
  x: 0.0
  y: 0.0
  z: 0.0
Heading_STD: 0.0
USW: 0
---
header: 
  seq: 61
  stamp: 
    secs: 1652992542
    nsecs:  28708008
  frame_id: "F2003127"
GPS_INS_Time: 259257.6
GPS_IMU_Time: 259257.604953
GPS_mSOW: 
  data: 0
LLH: 
  x: 39.040002034
  y: -77.389999531
  z: 0.217
YPR: 
  x: 119.956
  y: 49.162
  z: -8.161
OriQuat: 
  x: 0.0
  y: 0.0
  z: 0.0
  w: 0.0
Vel_ENU: 
  x: 0.25
  y: 0.06
  z: -0.64
Solution_Status: 
  data: 0
Pos_STD: 
  x: 0.0
  y: 0.0
  z: 0.0
Heading_STD: 0.0
USW: 0
---
header: 
  seq: 62
  stamp: 
    secs: 1652992542
    nsecs:  49691204
  frame_id: "F2003127"
GPS_INS_Time: 259257.62
GPS_IMU_Time: 259257.624954
GPS_mSOW: 
  data: 0
LLH: 
  x: 39.040002043
  y: -77.389999478
  z: 0.204
YPR: 
  x: 119.454
  y: 45.042
  z: -7.721
OriQuat: 
  x: 0.0
  y: 0.0
  z: 0.0
  w: 0.0
Vel_ENU: 
  x: 0.21
  y: 0.04
  z: -0.66
Solution_Status: 
  data: 0
Pos_STD: 
  x: 0.0
  y: 0.0
  z: 0.0
Heading_STD: 0.0
USW: 0
---
header: 
  seq: 63
  stamp: 
    secs: 1652992542
    nsecs:  70732103
  frame_id: "F2003127"
GPS_INS_Time: 259257.64
GPS_IMU_Time: 259257.644955
GPS_mSOW: 
  data: 0
LLH: 
  x: 39.04000205
  y: -77.389999434
  z: 0.191
YPR: 
  x: 119.223
  y: 40.924
  z: -7.163
OriQuat: 
  x: 0.0
  y: 0.0
  z: 0.0
  w: 0.0
Vel_ENU: 
  x: 0.16
  y: 0.03
  z: -0.65
Solution_Status: 
  data: 0
Pos_STD: 
  x: 0.0
  y: 0.0
  z: 0.0
Heading_STD: 0.0
USW: 0
---
header: 
  seq: 64
  stamp: 
    secs: 1652992542
    nsecs:  86702092
  frame_id: "F2003127"
GPS_INS_Time: 259257.66
GPS_IMU_Time: 259257.664956
GPS_mSOW: 
  data: 0
LLH: 
  x: 39.040002056
  y: -77.389999399
  z: 0.178
YPR: 
  x: 119.095
  y: 37.132
  z: -6.522
OriQuat: 
  x: 0.0
  y: 0.0
  z: 0.0
  w: 0.0
Vel_ENU: 
  x: 0.13
  y: 0.02
  z: -0.63
Solution_Status: 
  data: 0
Pos_STD: 
  x: 0.0
  y: 0.0
  z: 0.0
Heading_STD: 0.0
USW: 0
---
header: 
  seq: 65
  stamp: 
    secs: 1652992542
    nsecs: 107638715
  frame_id: "F2003127"
GPS_INS_Time: 259257.68
GPS_IMU_Time: 259257.684958
GPS_mSOW: 
  data: 0
LLH: 
  x: 39.040002059
  y: -77.38999937
  z: 0.166
YPR: 
  x: 119.209
  y: 33.952
  z: -5.635
OriQuat: 
  x: 0.0
  y: 0.0
  z: 0.0
  w: 0.0
Vel_ENU: 
  x: 0.11
  y: 0.0
  z: -0.59
Solution_Status: 
  data: 0
Pos_STD: 
  x: 0.0
  y: 0.0
  z: 0.0
Heading_STD: 0.0
USW: 0
---
header: 
  seq: 66
  stamp: 
    secs: 1652992542
    nsecs: 128719168
  frame_id: "F2003127"
GPS_INS_Time: 259257.7
GPS_IMU_Time: 259257.704959
GPS_mSOW: 
  data: 0
LLH: 
  x: 39.040002057
  y: -77.389999344
  z: 0.154
YPR: 
  x: 119.693
  y: 31.233
  z: -4.387
OriQuat: 
  x: 0.0
  y: 0.0
  z: 0.0
  w: 0.0
Vel_ENU: 
  x: 0.09
  y: -0.02
  z: -0.56
Solution_Status: 
  data: 0
Pos_STD: 
  x: 0.0
  y: 0.0
  z: 0.0
Heading_STD: 0.0
USW: 0
---
header: 
  seq: 67
  stamp: 
    secs: 1652992542
    nsecs: 149629181
  frame_id: "F2003127"
GPS_INS_Time: 259257.72
GPS_IMU_Time: 259257.72496
GPS_mSOW: 
  data: 0
LLH: 
  x: 39.040002049
  y: -77.389999324
  z: 0.143
YPR: 
  x: 120.615
  y: 28.648
  z: -2.878
OriQuat: 
  x: 0.0
  y: 0.0
  z: 0.0
  w: 0.0
Vel_ENU: 
  x: 0.07
  y: -0.07
  z: -0.55
Solution_Status: 
  data: 0
Pos_STD: 
  x: 0.0
  y: 0.0
  z: 0.0
Heading_STD: 0.0
USW: 0
---
header: 
  seq: 68
  stamp: 
    secs: 1652992542
    nsecs: 170738930
  frame_id: "F2003127"
GPS_INS_Time: 259257.74
GPS_IMU_Time: 259257.744961
GPS_mSOW: 
  data: 0
LLH: 
  x: 39.04000203
  y: -77.389999309
  z: 0.132
YPR: 
  x: 121.921
  y: 26.16
  z: -1.601
OriQuat: 
  x: 0.0
  y: 0.0
  z: 0.0
  w: 0.0
Vel_ENU: 
  x: 0.05
  y: -0.13
  z: -0.55
Solution_Status: 
  data: 0
Pos_STD: 
  x: 0.0
  y: 0.0
  z: 0.0
Heading_STD: 0.0
USW: 0
---
header: 
  seq: 69
  stamp: 
    secs: 1652992542
    nsecs: 186675234
  frame_id: "F2003127"
GPS_INS_Time: 259257.76
GPS_IMU_Time: 259257.764962
GPS_mSOW: 
  data: 0
LLH: 
  x: 39.040002001
  y: -77.389999297
  z: 0.121
YPR: 
  x: 123.111
  y: 23.994
  z: -1.073
OriQuat: 
  x: 0.0
  y: 0.0
  z: 0.0
  w: 0.0
Vel_ENU: 
  x: 0.04
  y: -0.18
  z: -0.55
Solution_Status: 
  data: 0
Pos_STD: 
  x: 0.0
  y: 0.0
  z: 0.0
Heading_STD: 0.0
USW: 0
---
header: 
  seq: 70
  stamp: 
    secs: 1652992542
    nsecs: 207625895
  frame_id: "F2003127"
GPS_INS_Time: 259257.78
GPS_IMU_Time: 259257.784964
GPS_mSOW: 
  data: 0
LLH: 
  x: 39.040001963
  y: -77.38999929
  z: 0.11
YPR: 
  x: 124.246
  y: 22.127
  z: -1.198
OriQuat: 
  x: 0.0
  y: 0.0
  z: 0.0
  w: 0.0
Vel_ENU: 
  x: 0.01
  y: -0.24
  z: -0.55
Solution_Status: 
  data: 0
Pos_STD: 
  x: 0.0
  y: 0.0
  z: 0.0
Heading_STD: 0.0
USW: 0
---
header: 
  seq: 71
  stamp: 
    secs: 1652992542
    nsecs: 228598647
  frame_id: "F2003127"
GPS_INS_Time: 259257.8
GPS_IMU_Time: 259257.804964
GPS_mSOW: 
  data: 0
LLH: 
  x: 39.040001916
  y: -77.389999287
  z: 0.099
YPR: 
  x: 125.773
  y: 20.42
  z: -1.374
OriQuat: 
  x: 0.0
  y: 0.0
  z: 0.0
  w: 0.0
Vel_ENU: 
  x: 0.0
  y: -0.26
  z: -0.54
Solution_Status: 
  data: 0
Pos_STD: 
  x: 0.0
  y: 0.0
  z: 0.0
Heading_STD: 0.0
USW: 0
---
header: 
  seq: 72
  stamp: 
    secs: 1652992542
    nsecs: 249580880
  frame_id: "F2003127"
GPS_INS_Time: 259257.82
GPS_IMU_Time: 259257.824966
GPS_mSOW: 
  data: 0
LLH: 
  x: 39.040001869
  y: -77.389999285
  z: 0.088
YPR: 
  x: 127.485
  y: 18.763
  z: -1.001
OriQuat: 
  x: 0.0
  y: 0.0
  z: 0.0
  w: 0.0
Vel_ENU: 
  x: 0.0
  y: -0.25
  z: -0.52
Solution_Status: 
  data: 0
Pos_STD: 
  x: 0.0
  y: 0.0
  z: 0.0
Heading_STD: 0.0
USW: 0
---
header: 
  seq: 73
  stamp: 
    secs: 1652992542
    nsecs: 270582428
  frame_id: "F2003127"
GPS_INS_Time: 259257.84
GPS_IMU_Time: 259257.844968
GPS_mSOW: 
  data: 0
LLH: 
  x: 39.040001823
  y: -77.389999284
  z: 0.078
YPR: 
  x: 129.235
  y: 17.055
  z: -0.181
OriQuat: 
  x: 0.0
  y: 0.0
  z: 0.0
  w: 0.0
Vel_ENU: 
  x: 0.0
  y: -0.26
  z: -0.5
Solution_Status: 
  data: 0
Pos_STD: 
  x: 0.0
  y: 0.0
  z: 0.0
Heading_STD: 0.0
USW: 0
---
header: 
  seq: 74
  stamp: 
    secs: 1652992542
    nsecs: 286601119
  frame_id: "F2003127"
GPS_INS_Time: 259257.86
GPS_IMU_Time: 259257.864968
GPS_mSOW: 
  data: 0
LLH: 
  x: 39.040001774
  y: -77.389999284
  z: 0.068
YPR: 
  x: 131.259
  y: 15.358
  z: 0.776
OriQuat: 
  x: 0.0
  y: 0.0
  z: 0.0
  w: 0.0
Vel_ENU: 
  x: 0.0
  y: -0.28
  z: -0.49
Solution_Status: 
  data: 0
Pos_STD: 
  x: 0.0
  y: 0.0
  z: 0.0
Heading_STD: 0.0
USW: 0
---
header: 
  seq: 75
  stamp: 
    secs: 1652992542
    nsecs: 308892116
  frame_id: "F2003127"
GPS_INS_Time: 259257.88
GPS_IMU_Time: 259257.884969
GPS_mSOW: 
  data: 0
LLH: 
  x: 39.04000172
  y: -77.389999289
  z: 0.058
YPR: 
  x: 133.489
  y: 13.738
  z: 1.544
OriQuat: 
  x: 0.0
  y: 0.0
  z: 0.0
  w: 0.0
Vel_ENU: 
  x: -0.03
  y: -0.3
  z: -0.49
Solution_Status: 
  data: 0
Pos_STD: 
  x: 0.0
  y: 0.0
  z: 0.0
Heading_STD: 0.0
USW: 0
---
header: 
  seq: 76
  stamp: 
    secs: 1652992542
    nsecs: 329565098
  frame_id: "F2003127"
GPS_INS_Time: 259257.9
GPS_IMU_Time: 259257.904971
GPS_mSOW: 
  data: 0
LLH: 
  x: 39.040001663
  y: -77.389999299
  z: 0.048
YPR: 
  x: 135.418
  y: 12.188
  z: 1.696
OriQuat: 
  x: 0.0
  y: 0.0
  z: 0.0
  w: 0.0
Vel_ENU: 
  x: -0.05
  y: -0.31
  z: -0.49
Solution_Status: 
  data: 0
Pos_STD: 
  x: 0.0
  y: 0.0
  z: 0.0
Heading_STD: 0.0
USW: 0
---
header: 
  seq: 77
  stamp: 
    secs: 1652992542
    nsecs: 350683680
  frame_id: "F2003127"
GPS_INS_Time: 259257.92
GPS_IMU_Time: 259257.924972
GPS_mSOW: 
  data: 0
LLH: 
  x: 39.040001604
  y: -77.389999315
  z: 0.038
YPR: 
  x: 137.065
  y: 10.831
  z: 1.264
OriQuat: 
  x: 0.0
  y: 0.0
  z: 0.0
  w: 0.0
Vel_ENU: 
  x: -0.08
  y: -0.33
  z: -0.47
Solution_Status: 
  data: 0
Pos_STD: 
  x: 0.0
  y: 0.0
  z: 0.0
Heading_STD: 0.0
USW: 0
---
header: 
  seq: 78
  stamp: 
    secs: 1652992542
    nsecs: 366624151
  frame_id: "F2003127"
GPS_INS_Time: 259257.94
GPS_IMU_Time: 259257.944973
GPS_mSOW: 
  data: 0
LLH: 
  x: 39.040001543
  y: -77.389999335
  z: 0.029
YPR: 
  x: 138.965
  y: 9.763
  z: 0.674
OriQuat: 
  x: 0.0
  y: 0.0
  z: 0.0
  w: 0.0
Vel_ENU: 
  x: -0.08
  y: -0.33
  z: -0.44
Solution_Status: 
  data: 0
Pos_STD: 
  x: 0.0
  y: 0.0
  z: 0.0
Heading_STD: 0.0
USW: 0
---
header: 
  seq: 79
  stamp: 
    secs: 1652992542
    nsecs: 388752041
  frame_id: "F2003127"
GPS_INS_Time: 259257.96
GPS_IMU_Time: 259257.964974
GPS_mSOW: 
  data: 0
LLH: 
  x: 39.040001487
  y: -77.389999353
  z: 0.02
YPR: 
  x: 140.66
  y: 8.749
  z: 0.561
OriQuat: 
  x: 0.0
  y: 0.0
  z: 0.0
  w: 0.0
Vel_ENU: 
  x: -0.07
  y: -0.28
  z: -0.41
Solution_Status: 
  data: 0
Pos_STD: 
  x: 0.0
  y: 0.0
  z: 0.0
Heading_STD: 0.0
USW: 0
---
header: 
  seq: 80
  stamp: 
    secs: 1652992542
    nsecs: 409563705
  frame_id: "F2003127"
GPS_INS_Time: 259257.98
GPS_IMU_Time: 259257.984975
GPS_mSOW: 
  data: 0
LLH: 
  x: 39.040001437
  y: -77.389999369
  z: 0.012
YPR: 
  x: 141.948
  y: 7.599
  z: 0.792
OriQuat: 
  x: 0.0
  y: 0.0
  z: 0.0
  w: 0.0
Vel_ENU: 
  x: -0.07
  y: -0.26
  z: -0.37
Solution_Status: 
  data: 0
Pos_STD: 
  x: 0.0
  y: 0.0
  z: 0.0
Heading_STD: 0.0
USW: 0
---
header: 
  seq: 81
  stamp: 
    secs: 1652992542
    nsecs: 430655861
  frame_id: "F2003127"
GPS_INS_Time: 259258.0
GPS_IMU_Time: 259258.004976
GPS_mSOW: 
  data: 0
LLH: 
  x: 39.04000139
  y: -77.389999385
  z: 0.005
YPR: 
  x: 143.246
  y: 6.579
  z: 1.173
OriQuat: 
  x: 0.0
  y: 0.0
  z: 0.0
  w: 0.0
Vel_ENU: 
  x: -0.05
  y: -0.24
  z: -0.3
Solution_Status: 
  data: 0
Pos_STD: 
  x: 0.0
  y: 0.0
  z: 0.0
Heading_STD: 0.0
USW: 0
---
header: 
  seq: 82
  stamp: 
    secs: 1652992542
    nsecs: 446817864
  frame_id: "F2003127"
GPS_INS_Time: 259258.02
GPS_IMU_Time: 259258.024978
GPS_mSOW: 
  data: 0
LLH: 
  x: 39.040001353
  y: -77.389999388
  z: 0.001
YPR: 
  x: 144.643
  y: 5.494
  z: 3.333
OriQuat: 
  x: 0.0
  y: 0.0
  z: 0.0
  w: 0.0
Vel_ENU: 
  x: 0.01
  y: -0.17
  z: -0.14
Solution_Status: 
  data: 0
Pos_STD: 
  x: 0.0
  y: 0.0
  z: 0.0
Heading_STD: 0.0
USW: 0
---
header: 
  seq: 83
  stamp: 
    secs: 1652992542
    nsecs: 468616077
  frame_id: "F2003127"
GPS_INS_Time: 259258.04
GPS_IMU_Time: 259258.044979
GPS_mSOW: 
  data: 0
LLH: 
  x: 39.040001323
  y: -77.389999383
  z: -0.001
YPR: 
  x: 146.202
  y: 4.044
  z: 6.259
OriQuat: 
  x: 0.0
  y: 0.0
  z: 0.0
  w: 0.0
Vel_ENU: 
  x: 0.01
  y: -0.18
  z: -0.09
Solution_Status: 
  data: 0
Pos_STD: 
  x: 0.0
  y: 0.0
  z: 0.0
Heading_STD: 0.0
USW: 0
---
header: 
  seq: 84
  stamp: 
    secs: 1652992542
    nsecs: 489714067
  frame_id: "F2003127"
GPS_INS_Time: 259258.06
GPS_IMU_Time: 259258.06498
GPS_mSOW: 
  data: 0
LLH: 
  x: 39.040001289
  y: -77.389999381
  z: -0.002
YPR: 
  x: 147.7
  y: 3.457
  z: 7.864
OriQuat: 
  x: 0.0
  y: 0.0
  z: 0.0
  w: 0.0
Vel_ENU: 
  x: 0.0
  y: -0.18
  z: -0.05
Solution_Status: 
  data: 0
Pos_STD: 
  x: 0.0
  y: 0.0
  z: 0.0
Heading_STD: 0.0
USW: 0
---
header: 
  seq: 85
  stamp: 
    secs: 1652992542
    nsecs: 510501009
  frame_id: "F2003127"
GPS_INS_Time: 259258.08
GPS_IMU_Time: 259258.084983
GPS_mSOW: 
  data: 0
LLH: 
  x: 39.040001259
  y: -77.389999382
  z: -0.003
YPR: 
  x: 148.82
  y: 3.179
  z: 8.874
OriQuat: 
  x: 0.0
  y: 0.0
  z: 0.0
  w: 0.0
Vel_ENU: 
  x: 0.0
  y: -0.15
  z: -0.02
Solution_Status: 
  data: 0
Pos_STD: 
  x: 0.0
  y: 0.0
  z: 0.0
Heading_STD: 0.0
USW: 0
---
header: 
  seq: 86
  stamp: 
    secs: 1652992542
    nsecs: 526767786
  frame_id: "F2003127"
GPS_INS_Time: 259258.1
GPS_IMU_Time: 259258.104982
GPS_mSOW: 
  data: 0
LLH: 
  x: 39.040001233
  y: -77.389999386
  z: -0.003
YPR: 
  x: 149.664
  y: 2.896
  z: 9.424
OriQuat: 
  x: 0.0
  y: 0.0
  z: 0.0
  w: 0.0
Vel_ENU: 
  x: -0.02
  y: -0.13
  z: -0.01
Solution_Status: 
  data: 0
Pos_STD: 
  x: 0.0
  y: 0.0
  z: 0.0
Heading_STD: 0.0
USW: 0
---
header: 
  seq: 87
  stamp: 
    secs: 1652992542
    nsecs: 548695922
  frame_id: "F2003127"
GPS_INS_Time: 259258.12
GPS_IMU_Time: 259258.124984
GPS_mSOW: 
  data: 0
LLH: 
  x: 39.040001211
  y: -77.389999393
  z: -0.003
YPR: 
  x: 150.404
  y: 2.729
  z: 9.573
OriQuat: 
  x: 0.0
  y: 0.0
  z: 0.0
  w: 0.0
Vel_ENU: 
  x: -0.03
  y: -0.11
  z: 0.0
Solution_Status: 
  data: 0
Pos_STD: 
  x: 0.0
  y: 0.0
  z: 0.0
Heading_STD: 0.0
USW: 0
---
header: 
  seq: 88
  stamp: 
    secs: 1652992542
    nsecs: 569646656
  frame_id: "F2003127"
GPS_INS_Time: 259258.14
GPS_IMU_Time: 259258.144985
GPS_mSOW: 
  data: 0
LLH: 
  x: 39.040001193
  y: -77.389999401
  z: -0.003
YPR: 
  x: 151.082
  y: 2.677
  z: 9.721
OriQuat: 
  x: 0.0
  y: 0.0
  z: 0.0
  w: 0.0
Vel_ENU: 
  x: -0.03
  y: -0.08
  z: 0.0
Solution_Status: 
  data: 0
Pos_STD: 
  x: 0.0
  y: 0.0
  z: 0.0
Heading_STD: 0.0
USW: 0
---
header: 
  seq: 89
  stamp: 
    secs: 1652992542
    nsecs: 590582113
  frame_id: "F2003127"
GPS_INS_Time: 259258.16
GPS_IMU_Time: 259258.164988
GPS_mSOW: 
  data: 0
LLH: 
  x: 39.040001182
  y: -77.389999409
  z: -0.004
YPR: 
  x: 151.606
  y: 2.438
  z: 10.057
OriQuat: 
  x: 0.0
  y: 0.0
  z: 0.0
  w: 0.0
Vel_ENU: 
  x: -0.03
  y: -0.03
  z: -0.03
Solution_Status: 
  data: 0
Pos_STD: 
  x: 0.0
  y: 0.0
  z: 0.0
Heading_STD: 0.0
USW: 0
---
header: 
  seq: 90
  stamp: 
    secs: 1652992542
    nsecs: 606508066
  frame_id: "F2003127"
GPS_INS_Time: 259258.18
GPS_IMU_Time: 259258.184987
GPS_mSOW: 
  data: 0
LLH: 
  x: 39.04000118
  y: -77.389999418
  z: -0.005
YPR: 
  x: 151.902
  y: 1.706
  z: 10.498
OriQuat: 
  x: 0.0
  y: 0.0
  z: 0.0
  w: 0.0
Vel_ENU: 
  x: -0.03
  y: 0.0
  z: -0.04
Solution_Status: 
  data: 0
Pos_STD: 
  x: 0.0
  y: 0.0
  z: 0.0
Heading_STD: 0.0
USW: 0
---
header: 
  seq: 91
  stamp: 
    secs: 1652992542
    nsecs: 628536273
  frame_id: "F2003127"
GPS_INS_Time: 259258.2
GPS_IMU_Time: 259258.204988
GPS_mSOW: 
  data: 0
LLH: 
  x: 39.04000118
  y: -77.389999424
  z: -0.005
YPR: 
  x: 151.899
  y: 1.291
  z: 10.675
OriQuat: 
  x: 0.0
  y: 0.0
  z: 0.0
  w: 0.0
Vel_ENU: 
  x: -0.01
  y: 0.0
  z: 0.0
Solution_Status: 
  data: 0
Pos_STD: 
  x: 0.0
  y: 0.0
  z: 0.0
Heading_STD: 0.0
USW: 0
---
header: 
  seq: 92
  stamp: 
    secs: 1652992542
    nsecs: 649509192
  frame_id: "F2003127"
GPS_INS_Time: 259258.22
GPS_IMU_Time: 259258.22499
GPS_mSOW: 
  data: 0
LLH: 
  x: 39.040001181
  y: -77.389999428
  z: -0.005
YPR: 
  x: 151.826
  y: 1.41
  z: 10.601
OriQuat: 
  x: 0.0
  y: 0.0
  z: 0.0
  w: 0.0
Vel_ENU: 
  x: -0.01
  y: 0.0
  z: 0.0
Solution_Status: 
  data: 0
Pos_STD: 
  x: 0.0
  y: 0.0
  z: 0.0
Heading_STD: 0.0
USW: 0
---
header: 
  seq: 93
  stamp: 
    secs: 1652992542
    nsecs: 670531850
  frame_id: "F2003127"
GPS_INS_Time: 259258.24
GPS_IMU_Time: 259258.244991
GPS_mSOW: 
  data: 0
LLH: 
  x: 39.040001183
  y: -77.389999434
  z: -0.006
YPR: 
  x: 151.807
  y: 1.382
  z: 10.541
OriQuat: 
  x: 0.0
  y: 0.0
  z: 0.0
  w: 0.0
Vel_ENU: 
  x: -0.02
  y: 0.0
  z: 0.0
Solution_Status: 
  data: 0
Pos_STD: 
  x: 0.0
  y: 0.0
  z: 0.0
Heading_STD: 0.0
USW: 0
---
header: 
  seq: 94
  stamp: 
    secs: 1652992542
    nsecs: 686513691
  frame_id: "F2003127"
GPS_INS_Time: 259258.26
GPS_IMU_Time: 259258.264992
GPS_mSOW: 
  data: 0
LLH: 
  x: 39.040001184
  y: -77.389999441
  z: -0.006
YPR: 
  x: 151.868
  y: 1.326
  z: 10.571
OriQuat: 
  x: 0.0
  y: 0.0
  z: 0.0
  w: 0.0
Vel_ENU: 
  x: -0.03
  y: 0.0
  z: 0.0
Solution_Status: 
  data: 0
Pos_STD: 
  x: 0.0
  y: 0.0
  z: 0.0
Heading_STD: 0.0
USW: 0
---
header: 
  seq: 95
  stamp: 
    secs: 1652992542
    nsecs: 708499436
  frame_id: "F2003127"
GPS_INS_Time: 259258.28
GPS_IMU_Time: 259258.284993
GPS_mSOW: 
  data: 0
LLH: 
  x: 39.040001184
  y: -77.389999449
  z: -0.006
YPR: 
  x: 152.056
  y: 1.272
  z: 10.622
OriQuat: 
  x: 0.0
  y: 0.0
  z: 0.0
  w: 0.0
Vel_ENU: 
  x: -0.03
  y: 0.0
  z: 0.0
Solution_Status: 
  data: 0
Pos_STD: 
  x: 0.0
  y: 0.0
  z: 0.0
Heading_STD: 0.0
USW: 0
---
header: 
  seq: 96
  stamp: 
    secs: 1652992542
    nsecs: 729504984
  frame_id: "F2003127"
GPS_INS_Time: 259258.3
GPS_IMU_Time: 259258.304994
GPS_mSOW: 
  data: 0
LLH: 
  x: 39.040001184
  y: -77.389999458
  z: -0.006
YPR: 
  x: 152.209
  y: 1.234
  z: 10.682
OriQuat: 
  x: 0.0
  y: 0.0
  z: 0.0
  w: 0.0
Vel_ENU: 
  x: -0.03
  y: 0.0
  z: 0.0
Solution_Status: 
  data: 0
Pos_STD: 
  x: 0.0
  y: 0.0
  z: 0.0
Heading_STD: 0.0
USW: 0
---
header: 
  seq: 97
  stamp: 
    secs: 1652992542
    nsecs: 750422737
  frame_id: "F2003127"
GPS_INS_Time: 259258.32
GPS_IMU_Time: 259258.324996
GPS_mSOW: 
  data: 0
LLH: 
  x: 39.040001184
  y: -77.389999467
  z: -0.006
YPR: 
  x: 152.327
  y: 1.246
  z: 10.793
OriQuat: 
  x: 0.0
  y: 0.0
  z: 0.0
  w: 0.0
Vel_ENU: 
  x: -0.04
  y: 0.0
  z: 0.0
Solution_Status: 
  data: 0
Pos_STD: 
  x: 0.0
  y: 0.0
  z: 0.0
Heading_STD: 0.0
USW: 0
---
header: 
  seq: 98
  stamp: 
    secs: 1652992542
    nsecs: 766540093
  frame_id: "F2003127"
GPS_INS_Time: 259258.34
GPS_IMU_Time: 259258.344997
GPS_mSOW: 
  data: 0
LLH: 
  x: 39.040001184
  y: -77.389999478
  z: -0.006
YPR: 
  x: 152.52
  y: 1.279
  z: 10.907
OriQuat: 
  x: 0.0
  y: 0.0
  z: 0.0
  w: 0.0
Vel_ENU: 
  x: -0.05
  y: 0.0
  z: 0.0
Solution_Status: 
  data: 0
Pos_STD: 
  x: 0.0
  y: 0.0
  z: 0.0
Heading_STD: 0.0
USW: 0
---
header: 
  seq: 99
  stamp: 
    secs: 1652992542
    nsecs: 788486561
  frame_id: "F2003127"
GPS_INS_Time: 259258.36
GPS_IMU_Time: 259258.364998
GPS_mSOW: 
  data: 0
LLH: 
  x: 39.040001184
  y: -77.389999492
  z: -0.006
YPR: 
  x: 152.814
  y: 1.282
  z: 11.063
OriQuat: 
  x: 0.0
  y: 0.0
  z: 0.0
  w: 0.0
Vel_ENU: 
  x: -0.07
  y: 0.0
  z: 0.0
Solution_Status: 
  data: 0
Pos_STD: 
  x: 0.0
  y: 0.0
  z: 0.0
Heading_STD: 0.0
USW: 0
---
header: 
  seq: 100
  stamp: 
    secs: 1652992542
    nsecs: 809451536
  frame_id: "F2003127"
GPS_INS_Time: 259258.38
GPS_IMU_Time: 259258.384999
GPS_mSOW: 
  data: 0
LLH: 
  x: 39.040001181
  y: -77.389999511
  z: -0.006
YPR: 
  x: 153.229
  y: 1.383
  z: 11.286
OriQuat: 
  x: 0.0
  y: 0.0
  z: 0.0
  w: 0.0
Vel_ENU: 
  x: -0.08
  y: -0.01
  z: 0.01
Solution_Status: 
  data: 0
Pos_STD: 
  x: 0.0
  y: 0.0
  z: 0.0
Heading_STD: 0.0
USW: 0
---
header: 
  seq: 101
  stamp: 
    secs: 1652992542
    nsecs: 830511249
  frame_id: "F2003127"
GPS_INS_Time: 259258.4
GPS_IMU_Time: 259258.405002
GPS_mSOW: 
  data: 0
LLH: 
  x: 39.040001177
  y: -77.389999533
  z: -0.005
YPR: 
  x: 153.814
  y: 1.558
  z: 11.593
OriQuat: 
  x: 0.0
  y: 0.0
  z: 0.0
  w: 0.0
Vel_ENU: 
  x: -0.1
  y: -0.02
  z: 0.02
Solution_Status: 
  data: 0
Pos_STD: 
  x: 0.0
  y: 0.0
  z: 0.0
Heading_STD: 0.0
USW: 0
---
header: 
  seq: 102
  stamp: 
    secs: 1652992542
    nsecs: 846439702
  frame_id: "F2003127"
GPS_INS_Time: 259258.42
GPS_IMU_Time: 259258.425001
GPS_mSOW: 
  data: 0
LLH: 
  x: 39.040001171
  y: -77.389999561
  z: -0.004
YPR: 
  x: 154.45
  y: 1.879
  z: 11.711
OriQuat: 
  x: 0.0
  y: 0.0
  z: 0.0
  w: 0.0
Vel_ENU: 
  x: -0.12
  y: -0.03
  z: 0.05
Solution_Status: 
  data: 0
Pos_STD: 
  x: 0.0
  y: 0.0
  z: 0.0
Heading_STD: 0.0
USW: 0
---
header: 
  seq: 103
  stamp: 
    secs: 1652992542
    nsecs: 868616738
  frame_id: "F2003127"
GPS_INS_Time: 259258.44
GPS_IMU_Time: 259258.445003
GPS_mSOW: 
  data: 0
LLH: 
  x: 39.040001164
  y: -77.389999592
  z: -0.003
YPR: 
  x: 155.026
  y: 2.328
  z: 11.706
OriQuat: 
  x: 0.0
  y: 0.0
  z: 0.0
  w: 0.0
Vel_ENU: 
  x: -0.13
  y: -0.04
  z: 0.09
Solution_Status: 
  data: 0
Pos_STD: 
  x: 0.0
  y: 0.0
  z: 0.0
Heading_STD: 0.0
USW: 0
---
header: 
  seq: 104
  stamp: 
    secs: 1652992542
    nsecs: 889586824
  frame_id: "F2003127"
GPS_INS_Time: 259258.46
GPS_IMU_Time: 259258.465006
GPS_mSOW: 
  data: 0
LLH: 
  x: 39.040001156
  y: -77.389999625
  z: 0.0
YPR: 
  x: 155.659
  y: 2.974
  z: 11.801
OriQuat: 
  x: 0.0
  y: 0.0
  z: 0.0
  w: 0.0
Vel_ENU: 
  x: -0.14
  y: -0.04
  z: 0.14
Solution_Status: 
  data: 0
Pos_STD: 
  x: 0.0
  y: 0.0
  z: 0.0
Heading_STD: 0.0
USW: 0
---
header: 
  seq: 105
  stamp: 
    secs: 1652992542
    nsecs: 910500633
  frame_id: "F2003127"
GPS_INS_Time: 259258.48
GPS_IMU_Time: 259258.485007
GPS_mSOW: 
  data: 0
LLH: 
  x: 39.040001147
  y: -77.389999658
  z: 0.002
YPR: 
  x: 156.387
  y: 3.888
  z: 12.077
OriQuat: 
  x: 0.0
  y: 0.0
  z: 0.0
  w: 0.0
Vel_ENU: 
  x: -0.14
  y: -0.04
  z: 0.19
Solution_Status: 
  data: 0
Pos_STD: 
  x: 0.0
  y: 0.0
  z: 0.0
Heading_STD: 0.0
USW: 0
---
header: 
  seq: 106
  stamp: 
    secs: 1652992542
    nsecs: 926479381
  frame_id: "F2003127"
GPS_INS_Time: 259258.5
GPS_IMU_Time: 259258.505006
GPS_mSOW: 
  data: 0
LLH: 
  x: 39.040001138
  y: -77.389999694
  z: 0.006
YPR: 
  x: 157.19
  y: 4.793
  z: 12.375
OriQuat: 
  x: 0.0
  y: 0.0
  z: 0.0
  w: 0.0
Vel_ENU: 
  x: -0.17
  y: -0.04
  z: 0.21
Solution_Status: 
  data: 0
Pos_STD: 
  x: 0.0
  y: 0.0
  z: 0.0
Heading_STD: 0.0
USW: 0
---
header: 
  seq: 107
  stamp: 
    secs: 1652992542
    nsecs: 948959818
  frame_id: "F2003127"
GPS_INS_Time: 259258.52
GPS_IMU_Time: 259258.524937
GPS_mSOW: 
  data: 0
LLH: 
  x: 39.040001128
  y: -77.389999738
  z: 0.011
YPR: 
  x: 158.235
  y: 5.668
  z: 12.644
OriQuat: 
  x: 0.0
  y: 0.0
  z: 0.0
  w: 0.0
Vel_ENU: 
  x: -0.19
  y: -0.06
  z: 0.27
Solution_Status: 
  data: 0
Pos_STD: 
  x: 0.0
  y: 0.0
  z: 0.0
Heading_STD: 0.0
USW: 0
---
header: 
  seq: 108
  stamp: 
    secs: 1652992542
    nsecs: 969409324
  frame_id: "F2003127"
GPS_INS_Time: 259258.54
GPS_IMU_Time: 259258.544939
GPS_mSOW: 
  data: 0
LLH: 
  x: 39.040001115
  y: -77.389999785
  z: 0.017
YPR: 
  x: 159.377
  y: 7.022
  z: 12.898
OriQuat: 
  x: 0.0
  y: 0.0
  z: 0.0
  w: 0.0
Vel_ENU: 
  x: -0.21
  y: -0.07
  z: 0.35
Solution_Status: 
  data: 0
Pos_STD: 
  x: 0.0
  y: 0.0
  z: 0.0
Heading_STD: 0.0
USW: 0
---
header: 
  seq: 109
  stamp: 
    secs: 1652992542
    nsecs: 990397464
  frame_id: "F2003127"
GPS_INS_Time: 259258.56
GPS_IMU_Time: 259258.564941
GPS_mSOW: 
  data: 0
LLH: 
  x: 39.040001101
  y: -77.389999835
  z: 0.025
YPR: 
  x: 160.346
  y: 9.207
  z: 12.955
OriQuat: 
  x: 0.0
  y: 0.0
  z: 0.0
  w: 0.0
Vel_ENU: 
  x: -0.21
  y: -0.07
  z: 0.43
Solution_Status: 
  data: 0
Pos_STD: 
  x: 0.0
  y: 0.0
  z: 0.0
Heading_STD: 0.0
USW: 0
---
header: 
  seq: 110
  stamp: 
    secs: 1652992543
    nsecs:   6490524
  frame_id: "F2003127"
GPS_INS_Time: 259258.58
GPS_IMU_Time: 259258.584941
GPS_mSOW: 
  data: 0
LLH: 
  x: 39.04000109
  y: -77.389999886
  z: 0.034
YPR: 
  x: 161.173
  y: 12.209
  z: 12.9
OriQuat: 
  x: 0.0
  y: 0.0
  z: 0.0
  w: 0.0
Vel_ENU: 
  x: -0.22
  y: -0.04
  z: 0.48
Solution_Status: 
  data: 0
Pos_STD: 
  x: 0.0
  y: 0.0
  z: 0.0
Heading_STD: 0.0
USW: 0
---
header: 
  seq: 111
  stamp: 
    secs: 1652992543
    nsecs:  28486899
  frame_id: "F2003127"
GPS_INS_Time: 259258.6
GPS_IMU_Time: 259258.604942
GPS_mSOW: 
  data: 0
LLH: 
  x: 39.040001086
  y: -77.389999939
  z: 0.045
YPR: 
  x: 161.921
  y: 15.648
  z: 12.856
OriQuat: 
  x: 0.0
  y: 0.0
  z: 0.0
  w: 0.0
Vel_ENU: 
  x: -0.23
  y: 0.0
  z: 0.54
Solution_Status: 
  data: 0
Pos_STD: 
  x: 0.0
  y: 0.0
  z: 0.0
Heading_STD: 0.0
USW: 0
---
header: 
  seq: 112
  stamp: 
    secs: 1652992543
    nsecs:  49489077
  frame_id: "F2003127"
GPS_INS_Time: 259258.62
GPS_IMU_Time: 259258.624943
GPS_mSOW: 
  data: 0
LLH: 
  x: 39.040001089
  y: -77.389999996
  z: 0.056
YPR: 
  x: 162.659
  y: 19.666
  z: 12.968
OriQuat: 
  x: 0.0
  y: 0.0
  z: 0.0
  w: 0.0
Vel_ENU: 
  x: -0.25
  y: 0.03
  z: 0.62
Solution_Status: 
  data: 0
Pos_STD: 
  x: 0.0
  y: 0.0
  z: 0.0
Heading_STD: 0.0
USW: 0
---
header: 
  seq: 113
  stamp: 
    secs: 1652992543
    nsecs:  70367942
  frame_id: "F2003127"
GPS_INS_Time: 259258.64
GPS_IMU_Time: 259258.644946
GPS_mSOW: 
  data: 0
LLH: 
  x: 39.040001099
  y: -77.390000058
  z: 0.069
YPR: 
  x: 163.163
  y: 24.73
  z: 13.049
OriQuat: 
  x: 0.0
  y: 0.0
  z: 0.0
  w: 0.0
Vel_ENU: 
  x: -0.28
  y: 0.08
  z: 0.68
Solution_Status: 
  data: 0
Pos_STD: 
  x: 0.0
  y: 0.0
  z: 0.0
Heading_STD: 0.0
USW: 0
---
header: 
  seq: 114
  stamp: 
    secs: 1652992543
    nsecs:  86383615
  frame_id: "F2003127"
GPS_INS_Time: 259258.66
GPS_IMU_Time: 259258.664946
GPS_mSOW: 
  data: 0
LLH: 
  x: 39.04000112
  y: -77.390000128
  z: 0.083
YPR: 
  x: 163.123
  y: 30.776
  z: 12.77
OriQuat: 
  x: 0.0
  y: 0.0
  z: 0.0
  w: 0.0
Vel_ENU: 
  x: -0.31
  y: 0.15
  z: 0.7
Solution_Status: 
  data: 0
Pos_STD: 
  x: 0.0
  y: 0.0
  z: 0.0
Heading_STD: 0.0
USW: 0
---
header: 
  seq: 115
  stamp: 
    secs: 1652992543
    nsecs: 108565652
  frame_id: "F2003127"
GPS_INS_Time: 259258.68
GPS_IMU_Time: 259258.684947
GPS_mSOW: 
  data: 0
LLH: 
  x: 39.040001155
  y: -77.390000206
  z: 0.097
YPR: 
  x: 162.745
  y: 37.015
  z: 12.16
OriQuat: 
  x: 0.0
  y: 0.0
  z: 0.0
  w: 0.0
Vel_ENU: 
  x: -0.35
  y: 0.23
  z: 0.67
Solution_Status: 
  data: 0
Pos_STD: 
  x: 0.0
  y: 0.0
  z: 0.0
Heading_STD: 0.0
USW: 0
---
header: 
  seq: 116
  stamp: 
    secs: 1652992543
    nsecs: 129487424
  frame_id: "F2003127"
GPS_INS_Time: 259258.7
GPS_IMU_Time: 259258.704949
GPS_mSOW: 
  data: 0
LLH: 
  x: 39.040001205
  y: -77.390000294
  z: 0.11
YPR: 
  x: 162.188
  y: 42.871
  z: 11.357
OriQuat: 
  x: 0.0
  y: 0.0
  z: 0.0
  w: 0.0
Vel_ENU: 
  x: -0.39
  y: 0.31
  z: 0.62
Solution_Status: 
  data: 0
Pos_STD: 
  x: 0.0
  y: 0.0
  z: 0.0
Heading_STD: 0.0
USW: 0
---
header: 
  seq: 117
  stamp: 
    secs: 1652992543
    nsecs: 150478324
  frame_id: "F2003127"
GPS_INS_Time: 259258.72
GPS_IMU_Time: 259258.724949
GPS_mSOW: 
  data: 0
LLH: 
  x: 39.040001268
  y: -77.390000388
  z: 0.122
YPR: 
  x: 161.338
  y: 48.206
  z: 10.405
OriQuat: 
  x: 0.0
  y: 0.0
  z: 0.0
  w: 0.0
Vel_ENU: 
  x: -0.41
  y: 0.37
  z: 0.54
Solution_Status: 
  data: 0
Pos_STD: 
  x: 0.0
  y: 0.0
  z: 0.0
Heading_STD: 0.0
USW: 0
---
header: 
  seq: 118
  stamp: 
    secs: 1652992543
    nsecs: 166354575
  frame_id: "F2003127"
GPS_INS_Time: 259258.74
GPS_IMU_Time: 259258.74495
GPS_mSOW: 
  data: 0
LLH: 
  x: 39.04000134
  y: -77.390000486
  z: 0.132
YPR: 
  x: 160.205
  y: 53.044
  z: 9.208
OriQuat: 
  x: 0.0
  y: 0.0
  z: 0.0
  w: 0.0
Vel_ENU: 
  x: -0.42
  y: 0.41
  z: 0.47
Solution_Status: 
  data: 0
Pos_STD: 
  x: 0.0
  y: 0.0
  z: 0.0
Heading_STD: 0.0
USW: 0
---
header: 
  seq: 119
  stamp: 
    secs: 1652992543
    nsecs: 188477465
  frame_id: "F2003127"
GPS_INS_Time: 259258.76
GPS_IMU_Time: 259258.764952
GPS_mSOW: 
  data: 0
LLH: 
  x: 39.040001417
  y: -77.390000584
  z: 0.141
YPR: 
  x: 158.989
  y: 57.336
  z: 8.033
OriQuat: 
  x: 0.0
  y: 0.0
  z: 0.0
  w: 0.0
Vel_ENU: 
  x: -0.41
  y: 0.44
  z: 0.39
Solution_Status: 
  data: 0
Pos_STD: 
  x: 0.0
  y: 0.0
  z: 0.0
Heading_STD: 0.0
USW: 0
---
header: 
  seq: 120
  stamp: 
    secs: 1652992543
    nsecs: 209331609
  frame_id: "F2003127"
GPS_INS_Time: 259258.78
GPS_IMU_Time: 259258.784953
GPS_mSOW: 
  data: 0
LLH: 
  x: 39.040001499
  y: -77.390000679
  z: 0.148
YPR: 
  x: 157.876
  y: 60.922
  z: 7.171
OriQuat: 
  x: 0.0
  y: 0.0
  z: 0.0
  w: 0.0
Vel_ENU: 
  x: -0.4
  y: 0.46
  z: 0.32
Solution_Status: 
  data: 0
Pos_STD: 
  x: 0.0
  y: 0.0
  z: 0.0
Heading_STD: 0.0
USW: 0
---
header: 
  seq: 121
  stamp: 
    secs: 1652992543
    nsecs: 230348212
  frame_id: "F2003127"
GPS_INS_Time: 259258.8
GPS_IMU_Time: 259258.804954
GPS_mSOW: 
  data: 0
LLH: 
  x: 39.040001583
  y: -77.390000772
  z: 0.154
YPR: 
  x: 157.127
  y: 63.834
  z: 6.68
OriQuat: 
  x: 0.0
  y: 0.0
  z: 0.0
  w: 0.0
Vel_ENU: 
  x: -0.39
  y: 0.46
  z: 0.27
Solution_Status: 
  data: 0
Pos_STD: 
  x: 0.0
  y: 0.0
  z: 0.0
Heading_STD: 0.0
USW: 0
---
header: 
  seq: 122
  stamp: 
    secs: 1652992543
    nsecs: 246327053
  frame_id: "F2003127"
GPS_INS_Time: 259258.82
GPS_IMU_Time: 259258.824955
GPS_mSOW: 
  data: 0
LLH: 
  x: 39.040001669
  y: -77.390000864
  z: 0.159
YPR: 
  x: 156.844
  y: 66.397
  z: 6.551
OriQuat: 
  x: 0.0
  y: 0.0
  z: 0.0
  w: 0.0
Vel_ENU: 
  x: -0.39
  y: 0.49
  z: 0.24
Solution_Status: 
  data: 0
Pos_STD: 
  x: 0.0
  y: 0.0
  z: 0.0
Heading_STD: 0.0
USW: 0
---
header: 
  seq: 123
  stamp: 
    secs: 1652992543
    nsecs: 268730140
  frame_id: "F2003127"
GPS_INS_Time: 259258.84
GPS_IMU_Time: 259258.844958
GPS_mSOW: 
  data: 0
LLH: 
  x: 39.040001761
  y: -77.390000955
  z: 0.164
YPR: 
  x: 156.578
  y: 69.014
  z: 6.574
OriQuat: 
  x: 0.0
  y: 0.0
  z: 0.0
  w: 0.0
Vel_ENU: 
  x: -0.38
  y: 0.53
  z: 0.23
Solution_Status: 
  data: 0
Pos_STD: 
  x: 0.0
  y: 0.0
  z: 0.0
Heading_STD: 0.0
USW: 0
---
header: 
  seq: 124
  stamp: 
    secs: 1652992543
    nsecs: 289324920
  frame_id: "F2003127"
GPS_INS_Time: 259258.86
GPS_IMU_Time: 259258.864957
GPS_mSOW: 
  data: 0
LLH: 
  x: 39.04000186
  y: -77.390001044
  z: 0.168
YPR: 
  x: 155.205
  y: 71.829
  z: 5.719
OriQuat: 
  x: 0.0
  y: 0.0
  z: 0.0
  w: 0.0
Vel_ENU: 
  x: -0.38
  y: 0.56
  z: 0.21
Solution_Status: 
  data: 0
Pos_STD: 
  x: 0.0
  y: 0.0
  z: 0.0
Heading_STD: 0.0
USW: 0
---
header: 
  seq: 125
  stamp: 
    secs: 1652992543
    nsecs: 310333949
  frame_id: "F2003127"
GPS_INS_Time: 259258.88
GPS_IMU_Time: 259258.884959
GPS_mSOW: 
  data: 0
LLH: 
  x: 39.040001965
  y: -77.390001133
  z: 0.172
YPR: 
  x: 151.946
  y: 74.828
  z: 3.025
OriQuat: 
  x: 0.0
  y: 0.0
  z: 0.0
  w: 0.0
Vel_ENU: 
  x: -0.38
  y: 0.59
  z: 0.18
Solution_Status: 
  data: 0
Pos_STD: 
  x: 0.0
  y: 0.0
  z: 0.0
Heading_STD: 0.0
USW: 0
---
header: 
  seq: 126
  stamp: 
    secs: 1652992543
    nsecs: 331581565
  frame_id: "F2003127"
GPS_INS_Time: 259258.9
GPS_IMU_Time: 259258.90496
GPS_mSOW: 
  data: 0
LLH: 
  x: 39.040002071
  y: -77.39000122
  z: 0.176
YPR: 
  x: 146.363
  y: 77.899
  z: -1.945
OriQuat: 
  x: 0.0
  y: 0.0
  z: 0.0
  w: 0.0
Vel_ENU: 
  x: -0.36
  y: 0.58
  z: 0.14
Solution_Status: 
  data: 0
Pos_STD: 
  x: 0.0
  y: 0.0
  z: 0.0
Heading_STD: 0.0
USW: 0
---
header: 
  seq: 127
  stamp: 
    secs: 1652992543
    nsecs: 347308745
  frame_id: "F2003127"
GPS_INS_Time: 259258.92
GPS_IMU_Time: 259258.924962
GPS_mSOW: 
  data: 0
LLH: 
  x: 39.040002175
  y: -77.390001303
  z: 0.178
YPR: 
  x: 137.999
  y: 80.817
  z: -9.598
OriQuat: 
  x: 0.0
  y: 0.0
  z: 0.0
  w: 0.0
Vel_ENU: 
  x: -0.34
  y: 0.55
  z: 0.08
Solution_Status: 
  data: 0
Pos_STD: 
  x: 0.0
  y: 0.0
  z: 0.0
Heading_STD: 0.0
USW: 0
---
header: 
  seq: 128
  stamp: 
    secs: 1652992543
    nsecs: 368313015
  frame_id: "F2003127"
GPS_INS_Time: 259258.94
GPS_IMU_Time: 259258.944962
GPS_mSOW: 
  data: 0
LLH: 
  x: 39.040002272
  y: -77.390001378
  z: 0.179
YPR: 
  x: 125.282
  y: 83.336
  z: -21.443
OriQuat: 
  x: 0.0
  y: 0.0
  z: 0.0
  w: 0.0
Vel_ENU: 
  x: -0.3
  y: 0.51
  z: 0.01
Solution_Status: 
  data: 0
Pos_STD: 
  x: 0.0
  y: 0.0
  z: 0.0
Heading_STD: 0.0
USW: 0
---
header: 
  seq: 129
  stamp: 
    secs: 1652992543
    nsecs: 390031064
  frame_id: "F2003127"
GPS_INS_Time: 259258.96
GPS_IMU_Time: 259258.964964
GPS_mSOW: 
  data: 0
LLH: 
  x: 39.040002359
  y: -77.390001444
  z: 0.179
YPR: 
  x: 106.794
  y: 85.041
  z: -38.951
OriQuat: 
  x: 0.0
  y: 0.0
  z: 0.0
  w: 0.0
Vel_ENU: 
  x: -0.26
  y: 0.45
  z: -0.05
Solution_Status: 
  data: 0
Pos_STD: 
  x: 0.0
  y: 0.0
  z: 0.0
Heading_STD: 0.0
USW: 0
---
header: 
  seq: 130
  stamp: 
    secs: 1652992543
    nsecs: 410583456
  frame_id: "F2003127"
GPS_INS_Time: 259258.98
GPS_IMU_Time: 259258.984965
GPS_mSOW: 
  data: 0
LLH: 
  x: 39.040002434
  y: -77.390001501
  z: 0.177
YPR: 
  x: 85.001
  y: 85.636
  z: -59.895
OriQuat: 
  x: 0.0
  y: 0.0
  z: 0.0
  w: 0.0
Vel_ENU: 
  x: -0.22
  y: 0.37
  z: -0.1
Solution_Status: 
  data: 0
Pos_STD: 
  x: 0.0
  y: 0.0
  z: 0.0
Heading_STD: 0.0
USW: 0
---
header: 
  seq: 131
  stamp: 
    secs: 1652992543
    nsecs: 431322344
  frame_id: "F2003127"
GPS_INS_Time: 259259.0
GPS_IMU_Time: 259259.004966
GPS_mSOW: 
  data: 0
LLH: 
  x: 39.040002494
  y: -77.390001548
  z: 0.175
YPR: 
  x: 68.083
  y: 85.406
  z: -76.182
OriQuat: 
  x: 0.0
  y: 0.0
  z: 0.0
  w: 0.0
Vel_ENU: 
  x: -0.18
  y: 0.29
  z: -0.13
Solution_Status: 
  data: 0
Pos_STD: 
  x: 0.0
  y: 0.0
  z: 0.0
Heading_STD: 0.0
USW: 0
---
header: 
  seq: 132
  stamp: 
    secs: 1652992543
    nsecs: 447706396
  frame_id: "F2003127"
GPS_INS_Time: 259259.02
GPS_IMU_Time: 259259.024967
GPS_mSOW: 
  data: 0
LLH: 
  x: 39.040002541
  y: -77.390001587
  z: 0.172
YPR: 
  x: 58.38
  y: 85.016
  z: -85.32
OriQuat: 
  x: 0.0
  y: 0.0
  z: 0.0
  w: 0.0
Vel_ENU: 
  x: -0.15
  y: 0.22
  z: -0.15
Solution_Status: 
  data: 0
Pos_STD: 
  x: 0.0
  y: 0.0
  z: 0.0
Heading_STD: 0.0
USW: 0
---
header: 
  seq: 133
  stamp: 
    secs: 1652992543
    nsecs: 468595799
  frame_id: "F2003127"
GPS_INS_Time: 259259.04
GPS_IMU_Time: 259259.044969
GPS_mSOW: 
  data: 0
LLH: 
  x: 39.040002577
  y: -77.390001619
  z: 0.169
YPR: 
  x: 54.258
  y: 84.825
  z: -88.768
OriQuat: 
  x: 0.0
  y: 0.0
  z: 0.0
  w: 0.0
Vel_ENU: 
  x: -0.12
  y: 0.16
  z: -0.15
Solution_Status: 
  data: 0
Pos_STD: 
  x: 0.0
  y: 0.0
  z: 0.0
Heading_STD: 0.0
USW: 0
---
header: 
  seq: 134
  stamp: 
    secs: 1652992543
    nsecs: 489514219
  frame_id: "F2003127"
GPS_INS_Time: 259259.06
GPS_IMU_Time: 259259.064969
GPS_mSOW: 
  data: 0
LLH: 
  x: 39.040002601
  y: -77.390001644
  z: 0.166
YPR: 
  x: 54.57
  y: 84.753
  z: -87.912
OriQuat: 
  x: 0.0
  y: 0.0
  z: 0.0
  w: 0.0
Vel_ENU: 
  x: -0.08
  y: 0.1
  z: -0.14
Solution_Status: 
  data: 0
Pos_STD: 
  x: 0.0
  y: 0.0
  z: 0.0
Heading_STD: 0.0
USW: 0
---
header: 
  seq: 135
  stamp: 
    secs: 1652992543
    nsecs: 510442936
  frame_id: "F2003127"
GPS_INS_Time: 259259.08
GPS_IMU_Time: 259259.084971
GPS_mSOW: 
  data: 0
LLH: 
  x: 39.040002614
  y: -77.390001661
  z: 0.163
YPR: 
  x: 58.041
